No,latitude,link_id,longitude,경도,지번주소,도로명주소
1,37.58796,1680056602,126.681984,,인천광역시 서구 당하동 828-2,인천광역시 서구 드림로 402
2,37.587597,1680056602,126.68095,,인천광역시 서구 당하동 828-2,인천광역시 서구 드림로 386
3,37.56754,1680008304,126.676384,,인천광역시 서구 검암동 362,인천광역시 서구 도요지로189번길 141
4,37.568333,1680078200,126.67352,,인천광역시 서구 검암동 370-18,인천광역시 서구 간재울2길 73-3
5,37.56829,1680078200,126.67158,,인천광역시 서구 검암동 370-18,인천광역시 서구 검바위로 46
6,37.420486,1650041602,126.70619,,인천광역시 남동구 남촌동 639,인천광역시 남동구 남동대로409번길 46
7,37.43982,2240024100,126.82321,,경기도 시흥시 과림동 462-3,경기도 시흥시 범안로 510-72
8,37.4403,2240024100,126.832794,,경기도 시흥시 과림동 440-10,경기도 시흥시 금오로 419-5
9,37.52361,1663132600,126.7,,,인천광역시 계양구 새풀로 1
10,37.522934,1680496000,126.68433,,인천광역시 서구 가정동 587-3,인천광역시 서구 서곶로 12
11,37.42756,2130001100,126.88153,,경기도 광명시 소하동 1053-22,경기도 광명시 오리로 273
12,37.427364,2130001100,126.88199,,경기도 광명시 소하동 1053-22,경기도 광명시 오리로 270
13,37.521248,1680004500,126.68069,,인천광역시 서구 가정동 587-3,인천광역시 서구 가석로 412
14,37.521038,1680004500,126.6804,,인천광역시 서구 가정동 587-3,인천광역시 서구 가석로 412
15,37.42579,2130001100,126.88608,,경기도 광명시 일직동 산 11-5,경기도 광명시 오리로 282-43
16,37.425335,2130001100,126.88746,,경기도 광명시 일직동 산 11-5,경기도 광명시 덕안로104번길 17
17,37.502476,1680003000,126.67606,,인천광역시 서구 석남동 600,인천광역시 서구 가석로 202
18,37.467155,1630171301,126.67392,,인천광역시 미추홀구 주안동 37-1,인천광역시 미추홀구 석정로 350
19,37.423695,2050212500,127.12865,,경기도 성남시 중원구 성남동 1992,경기도 성남시 중원구 성남대로 1075
20,37.42382,2050212500,127.128654,,경기도 성남시 중원구 성남동 1992,경기도 성남시 중원구 성남대로 1075
21,37.579033,1000036600,126.99965,,서울특별시 종로구 연건동 28-21,서울특별시 종로구 대학로5길 31
22,37.42957,2050015003,127.12247,,경기도 성남시 중원구 성남동 1791,경기도 성남시 중원구 둔촌대로 14
23,37.43935,2040413900,127.120445,,경기도 성남시 수정구 수진동 4678-5,경기도 성남시 수정구 수정로 6
24,37.462788,1650069300,126.71339,,인천광역시 남동구 간석동 128-1,인천광역시 남동구 남동대로898번길 85
25,37.562378,1120005003,126.94299,,서울특별시 서대문구 대신동 143-18,서울특별시 서대문구 성산로 508
26,37.46451,2040041400,127.13011,,경기도 성남시 수정구 복정동 724-5,경기도 성남시 수정구 복정로118번길 37
27,37.466137,2040417700,127.13425,,경기도 성남시 수정구 창곡동 499-214,경기도 성남시 수정구 헌릉로 910
28,37.54728,1130044500,126.93142,,서울특별시 마포구 창전동 236,서울특별시 마포구 서강로 46
29,37.465233,1630046800,126.68985,,인천광역시 미추홀구 주안동 40-4,인천광역시 미추홀구 경원대로 927
30,37.528507,1140026201,126.85422,,서울특별시 양천구 신정동 1060,서울특별시 양천구 국회대로 176
31,37.455555,1630172801,126.67998,,인천광역시 미추홀구 주안동 467-2,인천광역시 미추홀구 미추홀대로 651
32,37.4472,1630021900,126.67922,,인천광역시 미추홀구 주안동 1268-3,인천광역시 미추홀구 미추홀대로 559
33,37.444057,1630019700,126.67886,,인천광역시 미추홀구 주안동 1297,인천광역시 미추홀구 승학길 87-35
34,37.441647,1630017700,126.678505,,인천광역시 미추홀구 주안동 1297,인천광역시 미추홀구 미추홀대로 498
35,37.526653,1670002200,126.7523,,인천광역시 계양구 서운동 139-4,인천광역시 계양구 아나지로 541
36,37.42699,1640051200,126.66139,,인천광역시 연수구 청학동 96-1,인천광역시 연수구 비류대로 237-2
37,37.42582,1640048700,126.653015,,인천광역시 연수구 옥련동 363-11,인천광역시 연수구 청량로 217
38,37.492386,2420008000,126.746284,,경기도 부천시 상동 21,경기도 부천시 상일로 42
39,37.46941,1660000500,126.75488,,인천광역시 부평구 구산동 304-7,
40,37.467987,1663184600,126.75487,,인천광역시 부평구 구산동 304-7,인천광역시 남동구 무네미로312번길 45
41,37.46772,1663184600,126.754906,,인천광역시 부평구 구산동 304-7,인천광역시 남동구 무네미로312번길 45
42,37.460224,1650065500,126.74951,,인천광역시 남동구 장수동 444-27,인천광역시 남동구 무네미로 263
43,37.433434,1640320300,126.69962,,인천광역시 연수구 선학동 120-2,인천광역시 연수구 경원대로534번길 69-3
44,37.433434,1640320300,126.69962,,인천광역시 연수구 선학동 120-2,인천광역시 연수구 경원대로534번길 69-3
45,37.42073,1640033603,126.67003,,인천광역시 연수구 청학동 455,인천광역시 연수구 함박뫼로 25
46,37.420296,1640032100,126.676956,,인천광역시 연수구 연수동 643,인천광역시 연수구 새말로 61
47,37.431797,1640325401,126.70348,,인천광역시 연수구 선학동 426,인천광역시 연수구 경원대로534번길 99
48,37.438866,1650278900,126.70761,,인천광역시 남동구 구월동 1478,인천광역시 남동구 남동대로 626
49,37.45269,1610022200,126.59958,,인천광역시 중구 항동7가 86-1,인천광역시 중구 항동7가 연안부두로75번길 9
50,37.448807,1610020402,126.60206,,인천광역시 중구 항동7가 107-1,인천광역시 중구 항동7가 연안부두로107번길 42
51,37.44888,1610020402,126.602104,,인천광역시 중구 항동7가 107-1,인천광역시 중구 항동7가 연안부두로107번길 42
52,37.449856,1630024200,126.63347,,인천광역시 미추홀구 용현동 627-74,인천광역시 미추홀구 매소홀로 67-1
53,37.472347,1660008500,126.6895,,인천광역시 부평구 십정동 551-3,인천광역시 부평구 가재울로 169
54,37.451305,1610023102,126.631035,,인천광역시 미추홀구 용현동 627-492,인천광역시 미추홀구 매소홀로 42
55,37.455338,1610024200,126.60993,,인천광역시 중구 항동7가 27-45,인천광역시 중구 항동7가 축항대로 112
56,37.45624,1610023700,126.60696,,인천광역시 중구 항동7가 27-19,인천광역시 중구 항동7가 축항대로 84
57,37.452526,1610022200,126.60223,,인천광역시 중구 항동7가 58-5,인천광역시 중구 항동7가 연안부두로55번길 26
58,37.452255,1610022200,126.60309,,인천광역시 중구 항동7가 58-20,인천광역시 중구 항동7가 연안부두로55번길 36
59,37.458157,1610025602,126.631226,,인천광역시 중구 신흥동3가 7-202,인천광역시 중구 신흥동3가 인항로 6
60,37.4613,1630009600,126.64007,,인천광역시 미추홀구 숭의동 162-14,인천광역시 미추홀구 인주대로11번길 18
61,37.461437,1630009600,126.64016,,인천광역시 미추홀구 숭의동 162-14,인천광역시 미추홀구 인주대로11번길 20
62,37.461384,1630038800,126.64468,,인천광역시 미추홀구 숭의동 162-14,인천광역시 미추홀구 독배로 490-1
63,37.43363,1640050302,126.69811,,인천광역시 연수구 선학동 32-8,인천광역시 연수구 경원대로 556
64,37.451923,1650057801,126.70458,,인천광역시 남동구 구월동 1335-11,인천광역시 남동구 미래로 21
65,37.451923,1650057801,126.70458,,인천광역시 남동구 구월동 1335-11,인천광역시 남동구 미래로 21
66,37.42694,1640271500,126.65711,,인천광역시 연수구 옥련동 308-2,인천광역시 연수구 한나루로 200-2
67,37.562336,1680007603,126.677704,,인천광역시 서구 검암동 산 72-15,인천광역시 서구 승학로512번길 39
68,37.429985,1640272800,126.6608,,인천광역시 연수구 청학동 14-28,인천광역시 연수구 청솔로 62-3
69,37.430893,1640053300,126.6462,,인천광역시 연수구 옥련동 64-64,인천광역시 연수구 독배로 113
70,37.42751,1640051502,126.65945,,인천광역시 연수구 옥련동 318-7,인천광역시 연수구 비류대로 223
71,37.42475,1640044702,126.676834,,인천광역시 연수구 연수동 641,인천광역시 연수구 함박로3번길 29
72,37.42384,1640324601,126.68721,,인천광역시 연수구 연수동 637,인천광역시 연수구 함박로91번길 20
73,37.427097,1640054000,126.636246,,인천광역시 연수구 옥련동 194-219,인천광역시 연수구 능허대로 40
74,37.399902,1640243200,126.65618,,인천광역시 연수구 송도동 1-1,인천광역시 연수구 아암대로 771
75,37.41692,1640020501,126.679115,,인천광역시 연수구 연수동 648,인천광역시 연수구 벚꽃로 122
76,37.41975,1640030600,126.67983,,인천광역시 연수구 연수동 645,인천광역시 연수구 먼우금로 259
77,37.420135,1640032900,126.68017,,인천광역시 연수구 연수동 645,인천광역시 연수구 먼우금로 261
78,37.50356,1680034200,126.66229,,인천광역시 서구 석남동 223-114,인천광역시 서구 거북로 6
79,37.508568,1610196900,126.52555,,인천광역시 중구 운북동 494-1,인천광역시 중구 백운로254번길 41-22
80,37.427177,1640050204,126.69888,,인천광역시 연수구 선학동 241-2,인천광역시 연수구 경원대로 480
81,37.55711,1680019702,126.62887,,인천광역시 서구 청라동 3-20,인천광역시 서구 에코로 167
82,37.419758,1640025800,126.69586,,인천광역시 연수구 선학동 384,인천광역시 연수구 선학로 2
83,37.476723,1620021701,126.67115,,인천광역시 동구 송림동 333,인천광역시 동구 방축로 249
84,37.392136,1640147200,126.657295,,인천광역시 연수구 송도동 41,인천광역시 연수구 해돋이로84번길 30
85,37.41832,1640024300,126.66673,,인천광역시 연수구 청학동 456,인천광역시 연수구 청능말로8번길 21
86,37.496387,1680029204,126.67897,,인천광역시 서구 가좌동 186-47,인천광역시 서구 건지로334번길 17-4
87,37.424713,1640044702,126.67699,,인천광역시 연수구 연수동 641,인천광역시 연수구 함박로3번길 29
88,37.42608,1640049100,126.698616,,인천광역시 연수구 선학동 423,인천광역시 연수구 학나래로118번길 47
89,37.45239,1650057401,126.70802,,인천광역시 남동구 구월동 1336,인천광역시 남동구 남동대로 784
90,37.42496,1640072100,126.67871,,인천광역시 연수구 연수동 638,인천광역시 연수구 함박로4번길 3
91,37.45403,1650007600,126.73451,,인천광역시 남동구 만수동 990,인천광역시 남동구 백범로 109
92,37.409897,1640015800,126.68515,,인천광역시 연수구 연수동 647,인천광역시 연수구 청능대로 175
93,37.458645,1650008402,126.727776,,인천광역시 남동구 만수동 990,인천광역시 남동구 백범로 187
94,37.421047,1640035900,126.696884,,인천광역시 연수구 연수동 637,인천광역시 연수구 경원대로 412
95,37.417233,1640019200,126.693214,,인천광역시 연수구 연수동 647,인천광역시 연수구 경원대로 368
96,37.382446,1640309700,126.66292,,인천광역시 연수구 송도동 241,인천광역시 연수구 송도과학로 31
97,37.4114,1650036000,126.69656,,인천광역시 남동구 논현동 471-6,인천광역시 남동구 은봉로 44
98,37.50565,2420020100,126.75237,,경기도 부천시 상동 633,경기도 부천시 상동로 87
99,37.528667,1670002300,126.75294,,인천광역시 계양구 서운동 140-7,인천광역시 계양구 서운산업로47번길 29
100,37.52867,1670002300,126.75344,,인천광역시 계양구 서운동 140-7,인천광역시 계양구 서운산업로47번길 29
101,37.523766,1660003702,126.748344,,인천광역시 부평구 삼산동 324-9,인천광역시 계양구 아나지로 510
102,37.509212,1210061200,127.015366,,서울특별시 서초구 반포동 128-23,서울특별시 서초구 신반포로 287
103,37.525997,1680233800,126.6523,,인천광역시 서구 청라동 101-11,인천광역시 서구 파랑로 495
104,37.43358,1640001500,126.647095,,인천광역시 연수구 옥련동 64-78,인천광역시 연수구 독배로 148
105,37.42324,1640041900,126.69436,,인천광역시 연수구 선학동 384,인천광역시 연수구 학나래로5번길 39
106,37.415913,1640019100,126.69187,,인천광역시 연수구 연수동 647,인천광역시 연수구 함박뫼로 250
107,37.396435,1650027000,126.67367,,인천광역시 남동구 고잔동 744-1,인천광역시 남동구 능허대로 541
108,37.391026,1650024600,126.682976,,인천광역시 남동구 고잔동 788-1,인천광역시 남동구 능허대로 637
109,37.392513,1650025401,126.6798,,인천광역시 남동구 고잔동 788-1,인천광역시 남동구 능허대로 603
110,37.393097,1650025401,126.67858,,인천광역시 남동구 고잔동 788-1,인천광역시 남동구 능허대로595번길 5
111,37.426018,1650045604,126.717575,,인천광역시 남동구 남촌동 242-1,인천광역시 남동구 호구포로 494
112,37.429615,1650045603,126.71822,,인천광역시 남동구 남촌동 82-5,인천광역시 남동구 호구포로 530
113,37.44278,1650280900,126.711655,,인천광역시 남동구 구월동 1583,인천광역시 남동구 선수촌공원로 36
114,37.555805,1680007602,126.677505,,인천광역시 서구 공촌동 293-8,인천광역시 서구 서곶로 434
115,37.478214,1680498301,126.674805,,인천광역시 서구 가좌동 543-7,인천광역시 서구 가재울로32번길 39
116,37.538406,1680084302,126.64062,,인천광역시 서구 청라동 139-5,인천광역시 서구 청라루비로144번길 6-2
117,37.43706,1650047600,126.70675,,인천광역시 남동구 구월동 787-1,인천광역시 남동구 남동대로 614
118,37.535606,1680097800,126.6533,,인천광역시 서구 청라동 160-5,인천광역시 서구 청라라임로 100
119,37.481094,1680021600,126.686485,,인천광역시 서구 가좌동 474,인천광역시 서구 백범로630번길 38
120,37.472538,1660000202,126.69276,,인천광역시 부평구 십정동 329-13,인천광역시 부평구 백범로 540
121,37.472538,1660000202,126.69276,,인천광역시 부평구 십정동 329-13,인천광역시 부평구 백범로 540
122,37.48967,1680002900,126.675125,,인천광역시 서구 가좌동 274-14,인천광역시 서구 가정로58번길 32
123,37.45228,1650018601,126.73585,,인천광역시 남동구 만수동 1001-1,인천광역시 남동구 소래로 703
124,37.599136,1680060301,126.648026,,인천광역시 서구 왕길동 300-3,인천광역시 서구 단봉로 26
125,37.43602,1650266203,126.760796,,인천광역시 남동구 운연동 213-6,인천광역시 남동구 운연로 80
126,37.44336,2240027201,126.775444,,경기도 시흥시 신천동 428-2,경기도 시흥시 수인로 3452
127,37.439217,1650260900,126.72423,,인천광역시 남동구 수산동 94-35,인천광역시 남동구 경신상로 127
128,37.44014,1630014302,126.699875,,인천광역시 미추홀구 관교동 16,인천광역시 미추홀구 문화로 22
129,37.591957,1680063002,126.65569,,인천광역시 서구 왕길동 164-114,인천광역시 서구 원당대로 489
130,37.419735,1640030400,126.67784,,인천광역시 연수구 연수동 643,인천광역시 연수구 새말로 71
131,37.440174,1630014302,126.69989,,인천광역시 미추홀구 관교동 16,인천광역시 미추홀구 문화로 22
132,37.44022,1630014302,126.69993,,인천광역시 미추홀구 관교동 16,인천광역시 미추홀구 문화로 22
133,37.424377,1640034000,126.698586,,인천광역시 연수구 선학동 423,인천광역시 연수구 학나래로6번길 34
134,37.4413,1630053300,126.695465,,인천광역시 미추홀구 관교동 16-2,인천광역시 미추홀구 경원대로640번길 29
135,37.44075,1630014601,126.69833,,인천광역시 미추홀구 관교동 16,인천광역시 미추홀구 문화로 22
136,37.42288,1640040400,126.691124,,인천광역시 연수구 연수동 637,인천광역시 연수구 비류대로519번길 3-16
137,37.46677,2040004006,127.12655,,경기도 성남시 수정구 복정동 268-11,경기도 성남시 수정구 복정로 153
138,37.444378,2040002801,127.12707,,경기도 성남시 수정구 태평동 6989,경기도 성남시 수정구 성남대로 1284-2
139,37.407852,1640013902,126.672516,,인천광역시 연수구 동춘동 957,인천광역시 연수구 앵고개로 260
140,37.4215,2050008804,127.12545,,경기도 성남시 중원구 여수동 136-7,경기도 성남시 중원구 여수대로 200
141,37.398575,2260113200,127.01779,,경기도 의왕시 청계동 산 8-91,경기도 의왕시 원터아랫길 37-18
142,37.438965,2240021800,126.82035,,경기도 시흥시 안현동 산 1-1,경기도 시흥시 범안로 510-89
143,37.43415,2240017100,126.81098,,경기도 시흥시 안현동 123,경기도 시흥시 수인로 3128-1
144,37.40017,1640009600,126.67497,,인천광역시 연수구 동춘동 958,인천광역시 연수구 경원대로119번길 21
145,37.4276,1650094400,126.71013,,인천광역시 남동구 남촌동 541-13,인천광역시 남동구 남촌로67번길 84-3
146,37.40787,1640013902,126.67246,,인천광역시 연수구 동춘동 957,인천광역시 연수구 앵고개로 260
147,37.45551,1650059600,126.71924,,인천광역시 남동구 구월동 27,인천광역시 남동구 호구포로 818
148,37.43354,1640001600,126.64706,,인천광역시 연수구 옥련동 64-78,인천광역시 연수구 독배로 148
149,37.452595,1630001500,126.632195,,인천광역시 미추홀구 용현동 575-1,인천광역시 미추홀구 아암대로 107
150,37.41077,1640015800,126.68611,,인천광역시 연수구 연수동 647,인천광역시 연수구 경원대로 285
151,37.420372,1640033900,126.69623,,인천광역시 연수구 연수동 637,인천광역시 연수구 선학로 2
152,37.42229,1650044600,126.71307,,인천광역시 남동구 남촌동 197-1,인천광역시 남동구 비류대로 705
153,37.42073,1650115402,126.74107,,인천광역시 남동구 논현동 1-75,인천광역시 남동구 서창남순환로 190-15
154,37.403408,2240014805,126.79057,,경기도 시흥시 하중동 137-94,경기도 시흥시 하중로 50
155,37.381874,1650094600,126.71615,,인천광역시 남동구 고잔동 979,인천광역시 남동구 제3경인고속화도로 2
156,37.490997,2420009600,126.74647,,경기도 부천시 상동 21,경기도 부천시 상일로 42
157,37.470066,1660000500,126.754944,,인천광역시 부평구 구산동 304-7,
158,37.40379,1640110200,126.64104,,인천광역시 연수구 송도동 71,인천광역시 연수구 신송로 248
159,37.420883,2130001000,126.893486,,경기도 광명시 일직동 50,경기도 광명시 일직로99번길 2
160,37.396347,1650026402,126.69392,,인천광역시 남동구 고잔동 765,인천광역시 남동구 앵고개로 488
161,37.48839,1660013200,126.706566,,인천광역시 부평구 산곡동 307-5,인천광역시 부평구 경원대로 1269
162,37.532745,1670015400,126.72246,,인천광역시 계양구 작전동 878,인천광역시 계양구 계양대로 101
163,37.476124,1680493200,126.67448,,인천광역시 서구 가좌동 606-18,인천광역시 미추홀구 방축로 270
164,37.404007,1640012100,126.67953,,인천광역시 연수구 동춘동 954,인천광역시 연수구 경원대로 184
165,37.421936,1640038200,126.68198,,인천광역시 연수구 연수동 645,인천광역시 연수구 먼우금로 289
166,37.59379,1680082000,126.67238,,인천광역시 서구 마전동 1096,인천광역시 서구 원당대로 637
167,37.62665,2320101600,126.63032,,경기도 김포시 양촌읍 대포리 2-18,경기도 김포시 양촌읍 봉수대로 1770-5
168,37.62829,2320008300,126.629196,,경기도 김포시 양촌읍 구래리 748-6,경기도 김포시 양촌읍 황금로24번길 187
169,37.38444,1650218400,126.69997,,인천광역시 남동구 고잔동 977,인천광역시 남동구 아암대로 1187
170,37.410084,1640015200,126.671776,,인천광역시 연수구 동춘동 956,인천광역시 연수구 먼우금로 125-2
171,37.593777,1680082000,126.67241,,인천광역시 서구 마전동 1096,인천광역시 서구 원당대로 637
172,37.566177,1680019305,126.679245,,인천광역시 서구 검암동 556,인천광역시 서구 승학로 537
173,37.401184,2040410100,127.084015,,경기도 성남시 수정구 금토동 368-4,경기도 성남시 수정구 내동로30번길 16
174,37.474754,1650010800,126.709305,,인천광역시 부평구 십정동 592,인천광역시 남동구 경인로728번길 1
175,37.47832,1680011900,126.682045,,인천광역시 서구 가좌동 551,인천광역시 서구 가좌로 54
176,37.484486,1663012100,126.71631,,인천광역시 부평구 부평동 산 34-2,인천광역시 부평구 경인로 863
177,37.41083,1640014900,126.66817,,인천광역시 연수구 동춘동 957,인천광역시 연수구 앵고개로 207-2
178,37.417534,1640021900,126.67786,,인천광역시 연수구 연수동 651,인천광역시 연수구 벚꽃로 114
179,37.393055,1650025800,126.701065,,인천광역시 남동구 고잔동 765,인천광역시 남동구 청능대로410번길 135
180,37.388866,1650000800,126.71186,,인천광역시 남동구 고잔동 806,인천광역시 남동구 논현고잔로 64
181,37.407814,1640240600,126.64725,,인천광역시 연수구 동춘동 906,
182,37.39752,1640141100,126.65219,,인천광역시 연수구 송도동 53,인천광역시 연수구 컨벤시아대로 55
183,37.403748,1640243400,126.65714,,인천광역시 연수구 동춘동 912,인천광역시 연수구 능허대로 384-72
184,37.51364,1680142800,126.62603,,인천광역시 서구 청라동 194-2,인천광역시 서구 파랑로116번길 3
185,37.47436,1660000401,126.68939,,인천광역시 부평구 십정동 557-13,인천광역시 부평구 백범로577번길 3
186,37.742275,1690005006,126.49279,,인천광역시 강화군 강화읍 갑곳리 929-15,인천광역시 강화군 강화읍 강화대로 335
187,37.567417,1680008403,126.676796,,인천광역시 서구 검암동 492-6,인천광역시 서구 검암로39번길 30-5
188,37.48145,1680000404,126.680626,,인천광역시 서구 가좌동 292,인천광역시 서구 백범로 687
189,37.399384,1640009100,126.669044,,인천광역시 연수구 동춘동 959,인천광역시 연수구 먼우금로 1
190,37.414715,1650037600,126.72545,,인천광역시 남동구 도림동 412-35,인천광역시 남동구 비류대로764번길 202
191,37.418095,1640021900,126.67838,,인천광역시 연수구 연수동 589,인천광역시 연수구 벚꽃로 115
192,37.409363,1640065500,126.64859,,인천광역시 연수구 동춘동 744-1,인천광역시 연수구 앵고개로 39
193,37.393826,1640248700,126.66537,,인천광역시 연수구 동춘동 916-3,인천광역시 연수구 아암대로 843
194,37.4357,2130001500,126.86175,,경기도 광명시 노온사동 산 141-23,경기도 광명시 장절로 96-63
195,37.447674,1650051700,126.699356,,인천광역시 남동구 구월동 1335-4,인천광역시 남동구 문화로 95
196,37.431393,2240899000,126.773315,,경기도 시흥시 신천동 500,경기도 시흥시 서해안로 1371
197,37.39972,1640009600,126.67449,,인천광역시 연수구 동춘동 958,인천광역시 연수구 경원대로 80
198,37.458523,1630036100,126.67897,,인천광역시 미추홀구 주안동 189,인천광역시 미추홀구 경인로 350-1
199,37.420334,1650041602,126.70646,,인천광역시 남동구 남촌동 639,인천광역시 남동구 남동대로409번길 46
